{
"type": "FeatureCollection",
"name": "AFIS_UNIT",
"crs": { "type": "name", "properties": { "name": "urn:ogc:def:crs:OGC:1.3:CRS84" } },
"features": [
{ "type": "Feature", "properties": { "CODE_ICAO": "ENSS", "TXT_NAME": "SVARTNES", "TXT_NAME_D": "SVARTNES", "GEO_LAT": "702119.4142N", "GEO_LONG": "0310241.5959E", "CHART_LIST": "ENSS - RWY 15 - GLS;ENSS - RWY 15 - RNP;ENSS - RWY 15 - VOR;ENSS - RWY 33 - GLS;ENSS - RWY 33 - RNP Y;ENSS - RWY 33 - RNP Z;ENSS - RWY 33 - VOR", "LAST_PUBLI": "2021\/07\/15" }, "geometry": { "type": "Point", "coordinates": [ 31.044887749999987, 70.355392833 ] } },
{ "type": "Feature", "properties": { "CODE_ICAO": "ENRO", "TXT_NAME": "ROEROS", "TXT_NAME_D": "RØROS", "GEO_LAT": "623444.4911N", "GEO_LONG": "0112041.9381E", "CHART_LIST": "ENRO - RWY 31 - ILS or LOC;ENRO - RWY 31 - NDB;ENRO - RWY 31 - RNP", "LAST_PUBLI": "2021\/06\/17" }, "geometry": { "type": "Point", "coordinates": [ 11.344982806000019, 62.579025306 ] } },
{ "type": "Feature", "properties": { "CODE_ICAO": "ENSA", "TXT_NAME": "SVEA", "TXT_NAME_D": "SVEA", "GEO_LAT": "775348.6622N", "GEO_LONG": "0164329.7480E", "CHART_LIST": null }, "geometry": { "type": "Point", "coordinates": [ 16.72493, 77.89685061099999 ] } },
{ "type": "Feature", "properties": { "CODE_ICAO": "ENAS", "TXT_NAME": "HAMNERABBEN", "TXT_NAME_D": "HAMNERABBEN", "GEO_LAT": "785539.8345N", "GEO_LONG": "0115229.2630E", "CHART_LIST": "ENAS - RWY 12 - RNP;ENAS - RWY 30 - RNP", "LAST_PUBLI": "2020\/10\/05" }, "geometry": { "type": "Point", "coordinates": [ 11.874795278000022, 78.927731806 ] } },
{ "type": "Feature", "properties": { "CODE_ICAO": "ENGK", "TXT_NAME": "GULLKNAPP", "TXT_NAME_D": "GULLKNAPP", "GEO_LAT": "583106.3343N", "GEO_LONG": "0084227.8845E", "CHART_LIST": "ENGK - RWY 05 - RNP;ENGK - RWY 23 - RNP", "LAST_PUBLI": "2020\/12\/03" }, "geometry": { "type": "Point", "coordinates": [ 8.707745693999982, 58.518426194000028 ] } },
{ "type": "Feature", "properties": { "CODE_ICAO": "ENRA", "TXT_NAME": "ROESSVOLL", "TXT_NAME_D": "RØSSVOLL", "GEO_LAT": "662150.0588N", "GEO_LONG": "0141805.0700E", "CHART_LIST": "ENRA - LOC-B;ENRA - LOC-D;ENRA - NDB-D;ENRA - RNP-A", "LAST_PUBLI": "2020\/10\/08" }, "geometry": { "type": "Point", "coordinates": [ 14.301408332999983, 66.363905222000028 ] } },
{ "type": "Feature", "properties": { "CODE_ICAO": "ENSG", "TXT_NAME": "HAUKAASEN", "TXT_NAME_D": "HAUKÅSEN", "GEO_LAT": "610922.4788N", "GEO_LONG": "0070816.2760E", "CHART_LIST": "ENSG - RNP-A;ENSG - RWY 06 - LOC;ENSG - RWY 24 - ILS;ENSG - RWY 24 - LOC;ENSG - RWY 24 - RNP Y;ENSG - RWY 24 - RNP Z", "LAST_PUBLI": "2021\/11\/04" }, "geometry": { "type": "Point", "coordinates": [ 7.137854444000027, 61.156244110999978 ] } },
{ "type": "Feature", "properties": { "CODE_ICAO": "ENST", "TXT_NAME": "STOKKA", "TXT_NAME_D": "STOKKA", "GEO_LAT": "655734.9792N", "GEO_LONG": "0122819.9915E", "CHART_LIST": "ENST - RWY 02 - GLS;ENST - RWY 02 - RNP Y (LPV only);ENST - RWY 02 - RNP Z;ENST - RWY 20 - GLS;ENST - RWY 20 - LOC;ENST - RWY 20 - RNP Y (LPV only);ENST - RWY 20 - RNP Z;ENST - VOR-A", "LAST_PUBLI": "2021\/01\/28" }, "geometry": { "type": "Point", "coordinates": [ 12.472219860999985, 65.95971644399998 ] } },
{ "type": "Feature", "properties": { "CODE_ICAO": "ENSB", "TXT_NAME": "LONGYEAR", "TXT_NAME_D": "LONGYEAR", "GEO_LAT": "781446.0960N", "GEO_LONG": "0152755.6946E", "CHART_LIST": "ENSB - RNP-A;ENSB - RWY 10 - ILS;ENSB - RWY 10 - LOC;ENSB - RWY 10 - RNP Y;ENSB - RWY 10 - RNP Z;ENSB - RWY 28 - LOC;ENSB - RWY 28 - RNP", "LAST_PUBLI": "2020\/11\/05" }, "geometry": { "type": "Point", "coordinates": [ 15.46547072200002, 78.24613777799999 ] } },
{ "type": "Feature", "properties": { "CODE_ICAO": "ENRS", "TXT_NAME": "ROEST", "TXT_NAME_D": "RØST", "GEO_LAT": "673139.5181N", "GEO_LONG": "0120611.7079E", "CHART_LIST": "ENRS - NDB-A;ENRS - RWY 02 - GLS;ENRS - RWY 02 - RNP;ENRS - RWY 20 - GLS;ENRS - RWY 20 - NDB;ENRS - RWY 20 - RNP", "LAST_PUBLI": "2021\/06\/17" }, "geometry": { "type": "Point", "coordinates": [ 12.10325219399999, 67.527643916999978 ] } },
{ "type": "Feature", "properties": { "CODE_ICAO": "ENRM", "TXT_NAME": "RYUM", "TXT_NAME_D": "RYUM", "GEO_LAT": "645018.3626N", "GEO_LONG": "0110845.6542E", "CHART_LIST": "ENRM - RWY 04 - GLS;ENRM - RWY 04 - RNP;ENRM - RWY 04 - VOR;ENRM - RWY 22 - GLS;ENRM - RWY 22 - RNP;ENRM - RWY 22 - VOR", "LAST_PUBLI": "2020\/10\/08" }, "geometry": { "type": "Point", "coordinates": [ 11.14601505600001, 64.838434055999983 ] } },
{ "type": "Feature", "properties": { "CODE_ICAO": "ENOV", "TXT_NAME": "HOVDEN", "TXT_NAME_D": "HOVDEN", "GEO_LAT": "621048.1275N", "GEO_LONG": "0060427.3026E", "CHART_LIST": "ENOV - LOC-B;ENOV - LOC-D;ENOV - NDB-C;ENOV - RNP-A", "LAST_PUBLI": "2021\/01\/28" }, "geometry": { "type": "Point", "coordinates": [ 6.074250721999988, 62.180035417 ] } },
{ "type": "Feature", "properties": { "CODE_ICAO": "ENVD", "TXT_NAME": "VADSOE", "TXT_NAME_D": "VADSØ", "GEO_LAT": "700354.7963N", "GEO_LONG": "0295041.1361E", "CHART_LIST": "ENVD - RNP-A;ENVD - RWY 07 - GLS;ENVD - RWY 07 - LOC;ENVD - RWY 07 - RNP;ENVD - RWY 25 - GLS;ENVD - RWY 25 - NDB;ENVD - RWY 25 - RNP;", "LAST_PUBLI": "2020\/11\/04" }, "geometry": { "type": "Point", "coordinates": [ 29.844760028, 70.065221194 ] } },
{ "type": "Feature", "properties": { "CODE_ICAO": "ENSD", "TXT_NAME": "ANDA", "TXT_NAME_D": "ANDA", "GEO_LAT": "614948.2222N", "GEO_LONG": "0060620.5899E", "CHART_LIST": "ENSD - NDB-A;ENSD - RWY 08 - RNP;ENSD - RWY 26 - LOC;ENSD - RWY 26 - RNP", "LAST_PUBLI": "2020\/12\/03" }, "geometry": { "type": "Point", "coordinates": [ 6.105719416999989, 61.830061721999982 ] } },
{ "type": "Feature", "properties": { "CODE_ICAO": "ENSO", "TXT_NAME": "SOERSTOKKEN", "TXT_NAME_D": "SØRSTOKKEN", "GEO_LAT": "594733.8422N", "GEO_LONG": "0052022.9860E", "CHART_LIST": "ENSO - RWY 14 - LOC;ENSO - RWY 14 - RNP;ENSO - RWY 32 - RNP;ENSO - RWY 32 - VOR", "LAST_PUBLI": "2021\/06\/17" }, "geometry": { "type": "Point", "coordinates": [ 5.339718333, 59.79273394400002 ] } },
{ "type": "Feature", "properties": { "CODE_ICAO": "ENNO", "TXT_NAME": "NOTODDEN", "TXT_NAME_D": "NOTODDEN", "GEO_LAT": "593355.9201N", "GEO_LONG": "0091244.2407E", "CHART_LIST": "ENNO - RWY 12 - LOC;ENNO - RWY 12 - RNP", "LAST_PUBLI": "2021\/01\/28" }, "geometry": { "type": "Point", "coordinates": [ 9.212289082999973, 59.565533361 ] } },
{ "type": "Feature", "properties": { "CODE_ICAO": "ENMH", "TXT_NAME": "MEHAMN", "TXT_NAME_D": "MEHAMN", "GEO_LAT": "710146.8555N", "GEO_LONG": "0274936.0554E", "CHART_LIST": "ENMH - RWY 17 - GLS;ENMH - RWY 17 - LOC;ENMH - RWY 17 - NDB;ENMH - RWY 17 - RNP;ENMH - RWY 35 - GLS;ENMH - RWY 35 - RNP", "LAST_PUBLI": "2020\/10\/08" }, "geometry": { "type": "Point", "coordinates": [ 27.826682055999981, 71.029682083000012 ] } },
{ "type": "Feature", "properties": { "CODE_ICAO": "ENLK", "TXT_NAME": "LEKNES", "TXT_NAME_D": "LEKNES", "GEO_LAT": "680909.3818N", "GEO_LONG": "0133634.1835E", "CHART_LIST": "ENLK - RWY 02 - LOC;ENLK - RWY 02 - RNP;ENLK - RWY 20 - GLS;ENLK - RWY 20 - RNP", "LAST_PUBLI": "2020\/10\/08" }, "geometry": { "type": "Point", "coordinates": [ 13.609495417, 68.152606056000025 ] } },
{ "type": "Feature", "properties": { "CODE_ICAO": "ENHV", "TXT_NAME": "VALAN", "TXT_NAME_D": "VALAN", "GEO_LAT": "710034.8616N", "GEO_LONG": "0255901.4551E", "CHART_LIST": "ENHV - LOC-B;ENHV - NDB-C;ENHV - RNP-A;ENHV - RNP-D", "LAST_PUBLI": "2020\/11\/05" }, "geometry": { "type": "Point", "coordinates": [ 25.983737528, 71.00968377800001 ] } },
{ "type": "Feature", "properties": { "CODE_ICAO": "ENML", "TXT_NAME": "AAROE", "TXT_NAME_D": "ÅRØ", "GEO_LAT": "624441.2993N", "GEO_LONG": "0071545.4219E", "CHART_LIST": "ENML - RWY 07 - ILS W;ENML - RWY 07 - ILS X;ENML - RWY 07 - RNP;ENML - RWY 25 - LOC Z;ENML - RWY 25 - RNP", "LAST_PUBLI": "2020\/11\/05" }, "geometry": { "type": "Point", "coordinates": [ 7.262617193999972, 62.744805360999976 ] } },
{ "type": "Feature", "properties": { "CODE_ICAO": "ENSR", "TXT_NAME": "SOERKJOSEN", "TXT_NAME_D": "SØRKJOSEN", "GEO_LAT": "694711.9638N", "GEO_LONG": "0205734.9200E", "CHART_LIST": "ENSR - LOC-B;ENSR - RNP-A", "LAST_PUBLI": "2021\/11\/04" }, "geometry": { "type": "Point", "coordinates": [ 20.9597, 69.786656611000012 ] } },
{ "type": "Feature", "properties": { "CODE_ICAO": "ENNM", "TXT_NAME": "NAMSOS", "TXT_NAME_D": "NAMSOS", "GEO_LAT": "642820.1337N", "GEO_LONG": "0113443.1840E", "CHART_LIST": "ENNM - RWY 07 - GLS;ENNM - RWY 07 - NDB;ENNM - RWY 07 - RNP;ENNM - RWY 25 - GLS;ENNM - RWY 25 - NDB;ENNM - RWY 25 - RNP", "LAST_PUBLI": "2020\/10\/08" }, "geometry": { "type": "Point", "coordinates": [ 11.57866222199999, 64.472259361 ] } },
{ "type": "Feature", "properties": { "CODE_ICAO": "ENHF", "TXT_NAME": "HAMMERFEST", "TXT_NAME_D": "HAMMERFEST", "GEO_LAT": "704046.7017N", "GEO_LONG": "0234006.9362E", "CHART_LIST": "ENHF - RNP 133;ENHF - RWY 04 - GLS;ENHF - RWY 04 - LOC Y;ENHF - RWY 04 - LOC Z;ENHF - RWY 04 - RNP;ENHF - RWY 22 - GLS;ENHF - RWY 22 - LOC Y;ENHF - RWY 22 - LOC Z;ENHF - RWY 22 - RNP", "LAST_PUBLI": "2021\/11\/04" }, "geometry": { "type": "Point", "coordinates": [ 23.668593389000023, 70.679639361 ] } },
{ "type": "Feature", "properties": { "CODE_ICAO": "ENSH", "TXT_NAME": "HELLE", "TXT_NAME_D": "HELLE", "GEO_LAT": "681436.4703N", "GEO_LONG": "0144008.5800E", "CHART_LIST": "ENSH - RWY 01 - GLS;ENSH - RWY 01 - LOC;ENSH - RWY 01 - RNP Y;ENSH - RWY 01 - RNP Z;", "LAST_PUBLI": "2020\/10\/08" }, "geometry": { "type": "Point", "coordinates": [ 14.66905, 68.243463971999972 ] } },
{ "type": "Feature", "properties": { "CODE_ICAO": "ENBN", "TXT_NAME": "BROENNOEY", "TXT_NAME_D": "BRØNNØY", "GEO_LAT": "652740.1708N", "GEO_LONG": "0121303.1442E", "CHART_LIST": "ENBN - RNP 085;ENBN - RNP-A;ENBN - RWY 03 - GLS;ENBN - RWY 03 - RNP X;ENBN - RWY 03 - RNP Z;ENBN - RWY 03 - VOR;ENBN - VOR-085;ENBN - VOR-C", "LAST_PUBLI": "2021\/01\/28" }, "geometry": { "type": "Point", "coordinates": [ 12.217540056000018, 65.461158555999987 ] } },
{ "type": "Feature", "properties": { "CODE_ICAO": "ENHK", "TXT_NAME": "HASVIK", "TXT_NAME_D": "HASVIK", "GEO_LAT": "702912.0299N", "GEO_LONG": "0220823.0818E", "CHART_LIST": "ENHK - RWY 11 - GLS;ENHK - RWY 11 - NDB;ENHK - RWY 11 - RNP;ENHK - RWY 29 - GLS;ENHK - RWY 29 - LOC;ENHK - RWY 29 - NDB;ENHK - RWY 29 - RNP", "LAST_PUBLI": "2020\/12\/03" }, "geometry": { "type": "Point", "coordinates": [ 22.139744943999972, 70.486674972 ] } },
{ "type": "Feature", "properties": { "CODE_ICAO": "ENBS", "TXT_NAME": "BAATSFJORD", "TXT_NAME_D": "BÅTSFJORD", "GEO_LAT": "703600.8735N", "GEO_LONG": "0294133.4874E", "CHART_LIST": "ENBS - RWY 03 - GLS;ENBS - RWY 03 - NDB;ENBS - RWY 03 - RNP;ENBS - RWY 21 - GLS;ENBS - RWY 21 - LOC;ENBS - RWY 21 - NDB;ENBS - RWY 21 - RNP", "LAST_PUBLI": "2021\/08\/12" }, "geometry": { "type": "Point", "coordinates": [ 29.692635388999975, 70.600242638999987 ] } },
{ "type": "Feature", "properties": { "CODE_ICAO": "ENMS", "TXT_NAME": "KJAERSTAD", "TXT_NAME_D": "KJÆRSTAD", "GEO_LAT": "654701.2847N", "GEO_LONG": "0131254.6429E", "CHART_LIST": "ENMS - RWY 33 - GLS;ENMS - RWY 33 - LOC;ENMS - RWY 33 - RNP;ENMS - VOR-A", "LAST_PUBLI": "2021\/08\/12" }, "geometry": { "type": "Point", "coordinates": [ 13.215178583000011, 65.783690193999973 ] } },
{ "type": "Feature", "properties": { "CODE_ICAO": "ENBL", "TXT_NAME": "BRINGELAND", "TXT_NAME_D": "BRINGELAND", "GEO_LAT": "612328.3093N", "GEO_LONG": "0054524.7671E", "CHART_LIST": "ENBL - RWY 07 - GLS;ENBL - RWY 07 - LOC;ENBL - RWY 07 - RNP;ENBL - RWY 25 - GLS;ENBL - RWY 25 - LOC;ENBL - RWY 25 - RNP Y (LPV only);ENBL - RWY 25 - RNP Z", "LAST_PUBLI": "2021\/01\/28" }, "geometry": { "type": "Point", "coordinates": [ 5.75687975, 61.391197028000022 ] } },
{ "type": "Feature", "properties": { "CODE_ICAO": "ENFL", "TXT_NAME": "FLOROE", "TXT_NAME_D": "FLORØ", "GEO_LAT": "613501.1177N", "GEO_LONG": "0050128.7225E", "CHART_LIST": "ENFL - RNP-D;ENFL - RWY 07 - LOC;ENFL - RWY 07 - RNP X (CAT H);ENFL - RWY 07 - RNP Y (LPV only);ENFL - RWY 07 - RNP Z;ENFL - RWY 25 - RNP;ENFL - VOR 060 (CAT H);ENFL - VOR-A;ENFL - VOR-B", "LAST_PUBLI": "2021\/04\/22" }, "geometry": { "type": "Point", "coordinates": [ 5.024645138999972, 61.583643806 ] } },
{ "type": "Feature", "properties": { "CODE_ICAO": "ENSK", "TXT_NAME": "SKAGEN", "TXT_NAME_D": "SKAGEN", "GEO_LAT": "683450.5847N", "GEO_LONG": "0150134.3216E", "CHART_LIST": "ENSK - RWY 08 - GLS;ENSK - RWY 08 - LOC;ENSK - RWY 08 - RNP;ENSK - RWY 26 - LOC;ENSK - RWY 26 - RNP;ENSK - RWY 26 - VOR;ENSK - VOR-A", "LAST_PUBLI": "2021\/11\/04" }, "geometry": { "type": "Point", "coordinates": [ 15.026200443999983, 68.580717972 ] } },
{ "type": "Feature", "properties": { "CODE_ICAO": "ENBV", "TXT_NAME": "BERLEVAAG", "TXT_NAME_D": "BERLEVÅG", "GEO_LAT": "705217.4914N", "GEO_LONG": "0290203.1389E", "CHART_LIST": "ENBV - RWY 06 - GLS;ENBV - RWY 06 - RNP;ENBV - RWY 24 - GLS;ENBV - RWY 24 - LOC;ENBV - RWY 24 - NDB;ENBV - RWY 24 - RNP;", "LAST_PUBLI": "2021\/11\/04" }, "geometry": { "type": "Point", "coordinates": [ 29.034205250000014, 70.871525389 ] } }
]
}
